region,district,class_type,latitude,longitude,employed_pop,unemployed_pop,poverty_incidence,poverty_intensity,illiterate_pop,uninsured_pop,male_0_14,female_0_14,male_15_64,female_15_64,male_65plus,female_65plus,total_population,literacy_rate,uninsured_rate,unemployment_rate,elderly_65plus_pop,elderly_share_65plus_pct,working_age_pop,dependency_pop,dependency_ratio,illiteracy_rate,vulnerability_index_pc1,vulnerability_index_pc1_rank,insurance_access_vulnerability_pc2,insurance_access_vulnerability_pc2_rank
Ahafo,Asunafo North Municipal,Municipal,6.81509969999999,-2.67736640122449,51611,45446,26.1,42.0,39814,21534,27637,26564,46535,44897,2715,2910,151258,0.7367808644832009,0.1423660236152798,0.468240312393748,5625,3.718811566991498,91432,59826,0.6543223379123283,0.2632191355167991,-0.8337867606712579,172,-0.3899314831689477,162
Ahafo,Asunafo South,District,6.56280465,-2.53279356335542,32671,25169,26.2,42.7,26493,43550,17439,16414,27748,26493,1769,1830,91693,0.711068456697894,0.4749544676256639,0.4351486860304288,3599,3.925054257140676,54241,37452,0.6904739956859203,0.288931543302106,-0.5140933290342086,144,1.404345114807256,30
Ahafo,Asutifi North,District,7.07651835,-2.52531850396715,24423,23087,26.6,43.1,18794,12723,13205,12841,23097,21584,1361,1468,73556,0.7444939909728643,0.1729702539561694,0.4859398021469164,2829,3.84604926858448,44681,28875,0.6462478458405139,0.2555060090271357,-0.5255935047515108,147,-0.6099983979479229,183
Ahafo,Asutifi South,District,6.84924284999999,-2.46125343688365,21582,20836,23.2,42.4,19701,14593,12878,12038,20319,19574,1194,1331,67334,0.7074137879822973,0.2167255769744854,0.4912065632514498,2525,3.749962871654736,39893,27441,0.6878650389792695,0.29258621201770274,-0.5139187071943183,143,-0.1995398362616325,143
Ahafo,Tano North Municipal,Municipal,7.19329065,-2.2080833699397,31439,29602,21.6,42.3,22005,13235,16935,15862,27631,28903,1968,2539,93838,0.7655001172232997,0.1410409429015963,0.4849527366851788,4507,4.802958289818624,56534,37304,0.6598507093076733,0.2344998827767003,-0.934019662002113,177,-0.6657463897353318,190
Ahafo,Tano South Municipal,Municipal,7.16093674999999,-1.99681708617696,28999,26149,23.7,42.6,24275,17791,16367,15474,24906,26294,1636,2312,86989,0.7209417282644932,0.2045201117382657,0.4741604409951404,3948,4.538504868431641,51200,35789,0.69900390625,0.2790582717355068,-0.5403235672668537,149,-0.18267128702128968,140
Ashanti,Adansi Asokwa,District,6.2467263,-1.50841,23550,21838,32.4,43.3,20304,36029,13691,12765,20664,21335,1589,1800,71844,0.7173876732921329,0.5014893380101331,0.4811403895302723,3389,4.717164968542954,41999,29845,0.7106121574323199,0.28261232670786707,0.12341992080218414,90,1.2225957634476219,40
Ashanti,Adansi North,District,6.3006124,-1.5897139446089,17411,18501,19.7,42.8,9833,14965,9247,8996,16537,16948,998,1429,54155,0.8184285846182254,0.2763364416951343,0.5151759857429271,2427,4.481580648139599,33485,20670,0.6172913244736449,0.18157141538177457,-1.023766872927765,183,-0.49227067640017547,174
Ashanti,Adansi South,District,6.00427495,-1.39314032189093,29633,24270,35.0,43.2,23064,39272,16212,15085,24648,25348,1692,2215,85200,0.7292957746478873,0.4609389671361502,0.4502532326586646,3907,4.585680751173709,49996,35204,0.7041363309064725,0.2707042253521127,-0.018445099465623102,104,1.255632726823299,37
Ashanti,Afigya Kwabre North,District,7.03891495,-1.62667127242319,21350,22931,25.2,43.7,17584,22087,15067,13982,20273,21082,1268,1658,73330,0.7602072821491885,0.3012000545479339,0.5178519003635871,2926,3.99018137188054,41355,31975,0.7731834119211703,0.23979271785081147,0.11638183595824278,91,-0.13002062113332047,139
Ashanti,Afigya Kwabre South,District,6.83998064999999,-1.60957900170106,75019,72938,13.0,43.3,31504,58599,43742,42968,68528,72634,2797,3998,234667,0.8657501906957519,0.2497112930237315,0.4929675513831721,6795,2.895592477851594,141162,93505,0.6623949788186623,0.13424980930424812,-1.2801386729111257,208,-0.6662758861459802,191
Ashanti,Ahafo Ano North Municipal,Municipal,6.90966445,-2.23301229669742,33407,25324,26.5,41.2,23108,28414,17581,16430,27329,27509,1843,2050,92742,0.7508356515925902,0.3063768303465528,0.4311862559806576,3893,4.197666645101465,54838,37904,0.6911995331704293,0.24916434840740975,-1.043775263890663,187,0.8759986437328082,58
Ashanti,Ahafo Ano South East,District,6.94633355,-1.90095355028736,20560,17723,31.8,42.5,20459,20524,12966,12219,17786,17591,1319,1587,63468,0.6776485788113695,0.3233755593369887,0.4629469999738787,2906,4.5786853217369385,35377,28091,0.7940469796760607,0.32235142118863047,0.18540279016189784,86,0.8460083751720993,61
Ashanti,Ahafo Ano South West,District,6.8289788,-2.00038660056909,22860,18251,31.9,41.8,20670,24676,12766,11893,19422,18720,1453,1516,65770,0.6857229740003041,0.3751862551315189,0.4439444430930894,2969,4.514216207997567,38142,27628,0.7243458654501599,0.31427702599969587,-0.2990877610442236,124,1.2336585571605558,38
Ashanti,Akrofuom,District,6.03262245,-1.67136425707588,16119,15681,37.0,44.2,14804,21116,9048,8443,16194,13524,1073,1009,49291,0.6996611957558174,0.4283946359375951,0.4931132075471698,2082,4.223894828670549,29718,19573,0.6586244027188909,0.3003388042441826,0.41881376730665065,74,0.5917638458299432,70
Ashanti,Amansie Central,District,6.20744165,-1.82814118592735,33580,27066,28.6,43.3,27396,31633,16778,15628,29576,26490,2039,2541,93052,0.7055839745518635,0.3399497055409878,0.4462948916663918,4580,4.921979108455488,56066,36986,0.6596867977027076,0.2944160254481365,-0.3631204424337886,127,0.5305658201588526,74
Ashanti,Amansie South,District,6.30802585,-2.01186652006877,41010,34389,30.3,44.4,34142,54471,19293,18463,38951,33050,1531,1867,113155,0.6982722813839424,0.4813839423799213,0.4560935821429992,3398,3.002960540851045,72001,41154,0.5715753947861836,0.3017277186160576,-0.22710817517213677,119,0.7945202038196091,63
Ashanti,Amansie West,District,6.43975084999999,-1.85237045719587,34157,37321,31.0,44.7,30406,48450,20820,20329,35110,32074,1803,2491,112627,0.7300292114679429,0.4301810400703206,0.5221326841825457,4294,3.812584904152645,67184,45443,0.6763961657537509,0.26997078853205714,0.4008349338629061,75,0.20673028971260174,105
Ashanti,Asante Akim Central Municipal,Municipal,6.56465915,-1.25347851347396,29453,30820,16.9,42.6,15786,18044,15871,15529,27013,29228,1623,2409,91673,0.8278009882953541,0.19683003719743,0.5113400693511191,4032,4.398241576036565,56241,35432,0.6300030227058552,0.1721990117046459,-1.2063983418749018,197,-0.8428780587625074,202
Ashanti,Asante Akim North Municipal,Municipal,6.906722,-0.958978,29855,26615,26.0,42.1,20318,28968,14574,14158,25316,26886,1799,2469,85202,0.7615314194502476,0.3399920189666909,0.4713122011687621,4268,5.009272082814958,52202,33000,0.6321596873683001,0.2384685805497524,-0.8923617332198177,175,0.45459181448028746,82
Ashanti,Asante Akim South Municipal,Municipal,6.46141735,-1.11533920112058,43495,33950,24.6,42.2,31673,40319,23973,22215,34657,35653,3085,4050,123633,0.74381435377286,0.3261184311632008,0.4383756214087417,7135,5.771112890571287,70310,53323,0.7583985208362964,0.25618564622714,-0.6027145963001361,156,0.818380466935147,62
Ashanti,Asokore Mampong Municipal,Municipal,6.7077852,-1.5665013,66200,62382,11.3,42.7,37038,38807,31486,31334,58782,62187,3238,4375,191402,0.8064910502502586,0.2027512774161189,0.4851534429391361,7613,3.977492398198556,120969,70433,0.5822400780365218,0.19350894974974142,-1.602513566186329,219,-0.8019205800535072,198
Ashanti,Asokwa Municipal,Municipal,6.6739843,-1.6026178,48298,38057,6.3,41.4,13484,17901,19479,19808,39593,41790,1928,3044,125642,0.8926791996306968,0.1424762420209802,0.4407040704070407,4972,3.95727543337419,81383,44259,0.5438359362520429,0.10732080036930325,-2.7221447348250707,255,-0.7963155859130163,196
Ashanti,Atwima Kwanwoma,District,6.65,-1.73333,74959,74937,13.8,43.3,31864,61419,42664,42286,68316,73750,3143,4687,234846,0.8643195966718615,0.2615288316598962,0.4999266157869456,7830,3.334099793055875,142066,92780,0.6530767389804739,0.13568040332813847,-1.2401451249600492,201,-0.6575812956890029,189
Ashanti,Atwima Mponua,District,6.5558963,-2.17659077213842,54588,42035,25.1,42.4,45371,37467,30112,28519,47076,43265,3047,3235,155254,0.707762762956188,0.2413271155654604,0.435041346263312,6282,4.046272559805223,90341,64913,0.7185331134257978,0.292237237043812,-0.5947670760010274,155,0.3699827694056565,89
Ashanti,Atwima Nwabiagya North,District,6.87764335,-1.74489585317473,48562,50393,13.5,43.1,24396,33196,28123,27947,46519,47225,2235,2976,155025,0.8426318335752299,0.2141332043218835,0.5092516800565914,5211,3.3613933236574747,93744,61281,0.6537058371735791,0.15736816642477014,-1.1952394340964776,195,-0.8784709768052489,204
Ashanti,Atwima Nwabiagya South Municipal,Municipal,7.0689359,-2.0226618,54304,50942,12.5,43.0,22396,37941,28597,28050,47365,52189,2372,3320,161893,0.8616617148363426,0.2343584960436831,0.4840278965471372,5692,3.515902478797724,99554,62339,0.6261827751772907,0.13833828516365743,-1.5201080931372164,217,-0.6866665304287959,193
Ashanti,Bekwai Municipal,Municipal,6.43631235,-1.59282285301503,44017,45866,19.4,43.6,24658,38214,24713,23371,38899,43202,3004,4778,137967,0.8212761022563366,0.2769792776533519,0.5102855934937641,7782,5.640479245036857,82101,55866,0.6804545620637995,0.17872389774366337,-0.6759061592465321,161,-0.5203732006023097,178
Ashanti,Bosome Freho,District,6.3681227,-1.36632312680072,22887,15579,31.3,41.0,17772,30539,12446,11347,17554,17537,1427,1948,62259,0.7145472943670794,0.4905154274883953,0.4050070191857745,3375,5.420903001975618,35091,27168,0.7742156108403864,0.2854527056329206,-0.5764927751367712,153,2.2624143904147167,15
Ashanti,Bosomtwi,District,6.1777503,-0.1969922,52679,52871,16.1,43.8,22913,46767,30581,29049,47098,51530,2749,4173,165180,0.8612846591597045,0.2831274972756992,0.500909521553766,6922,4.190579973362393,98628,66552,0.6747779535223263,0.13871534084029546,-0.9467147630756744,178,-0.5880563040683692,181
Ashanti,Ejisu Municipal,Municipal,6.7139918,-1.4665782,58604,59932,13.5,43.6,26943,39195,31700,30487,53047,57696,3089,4704,180723,0.8509154894507063,0.216878869872678,0.5056016737531214,7793,4.312124079392219,110743,69980,0.6319135295233107,0.14908451054929373,-1.1974054904746443,196,-1.0002865388896751,212
Ashanti,Ejura Sekyedumase Municipal,Municipal,7.38567515,-1.39945747215309,43982,38761,25.0,42.2,49399,46225,28117,26812,38155,39464,2279,2845,137672,0.6411833924109478,0.3357618106804579,0.4684505033658436,5124,3.721889708873264,77619,60053,0.7736894317113078,0.3588166075890522,-0.056655352801703855,108,0.8525969932448465,59
Ashanti,Juaben Municipal,Municipal,6.0721368,-0.260652306105858,21253,18934,20.9,43.1,14046,19449,12078,11664,17669,19128,1456,1934,63929,0.7802875064524707,0.3042281280795882,0.4711473859705875,3390,5.30275774687544,36797,27132,0.7373427181563714,0.2197124935475293,-0.5824025644536868,154,0.1605646847749761,109
Ashanti,"Kumasi Metropolitan Area (KMA)-Bantama, Manhyia North, Manhyia South, Nhyiaeso, & Subin",Metropolitan,6.698152,-1.621229,164504,153397,8.9,42.3,48041,100117,62261,63783,144185,155625,7216,10875,443945,0.8917861446800842,0.2255166743628152,0.4825307249741272,18091,4.075054342317179,299810,144135,0.4807544778359627,0.10821385531991579,-2.405662849545586,245,-0.9337211593476547,207
Ashanti,Kwabre East,Municipal,6.7897864,-1.53792852576917,99847,89434,10.6,43.3,38251,72440,54194,53339,85713,93804,3777,5987,296814,0.8711280465207167,0.2440585686658985,0.4724932771910545,9764,3.2896022424818234,179517,117297,0.6534032988519193,0.12887195347928326,-1.5148523466862884,216,-0.6191889987674858,186
Ashanti,Kwadaso Municipal,Municipal,6.68059249999999,-1.67467000057054,53272,55768,9.5,42.4,13021,33490,22551,22935,50312,52889,2342,3497,154526,0.9157358632204288,0.2167272821402223,0.5114453411592076,5839,3.778652136210088,103201,51325,0.4973304522243001,0.08426413677957123,-2.252727457612132,238,-1.1822612477203345,220
Ashanti,Mampong Municipal,Municipal,7.056139,-1.40425,35620,41077,22.5,42.6,24107,34749,20344,19591,34298,36738,2323,3338,116632,0.7933071541257974,0.2979371013101036,0.5355750550869004,5661,4.853727964880993,71036,45596,0.6418717270116561,0.20669284587420256,-0.6979809467671592,162,-0.3551427794395939,156
Ashanti,Obuasi East,Municipal,6.1796409,-1.60356394182495,29615,31180,13.1,42.7,14306,16076,15730,15876,27879,29934,1318,1664,92401,0.8451748357701756,0.1739808010735814,0.512871124270088,2982,3.227237800456705,57813,34588,0.5982737446595057,0.1548251642298244,-1.4893067417729313,214,-1.123983075948005,216
Ashanti,Obuasi Municipal,Municipal,6.211542,-1.6894045,36104,34814,11.1,42.8,12845,20504,16924,16455,33517,34084,1444,1873,104297,0.8768420951705227,0.1965924235596421,0.4909049888603739,3317,3.180340757644036,67601,36696,0.5428322066241623,0.1231579048294773,-1.9247186713091917,227,-1.068666017464507,213
Ashanti,Offinso Municipal,Municipal,7.05794129999999,-1.73462655987467,42048,43960,23.5,42.8,34107,42296,26183,25081,38040,42369,2346,3253,137272,0.7515370942362609,0.3081181887056355,0.5111152450934797,5599,4.078763331196456,80409,56863,0.7071720827270579,0.24846290576373908,-0.37130477025881603,129,0.006668690274012732,126
Ashanti,Offinso North,District,7.27974815,-1.79832745610104,28302,22051,34.3,41.5,31198,27930,16942,16145,22483,24424,1532,1914,83440,0.6261025886864813,0.3347315436241611,0.4379282267193613,3446,4.129913710450623,46907,36533,0.7788389792568273,0.3738974113135187,0.059158963831313936,98,1.3611916429685815,31
Ashanti,Oforikrom Municipal,Municipal,6.672717,-1.5504236985326,64286,95659,10.0,42.8,21529,49047,26682,26499,77870,75115,2874,4086,213126,0.898984638195246,0.2301314715238872,0.5980743380537059,6960,3.265673826750373,152985,60141,0.3931169722521815,0.10101536180475401,-2.027216465861971,230,-1.9275245810813664,246
Ashanti,Old Tafo Municipal,Municipal,6.74083555,-1.60465968075918,42408,35138,9.2,42.9,13412,28189,18483,18339,34972,38512,1631,2431,114368,0.882729434806939,0.2464762870733072,0.4531245970133856,4062,3.551692781197538,73484,40884,0.5563660116487943,0.117270565193061,-2.107494680636043,234,-0.6112335191097831,184
Ashanti,Sekyere Afram Plains,District,7.20286155,-0.592081996515861,10858,7985,50.5,40.8,17179,21066,7452,6931,9951,8183,410,299,33226,0.4829651477758382,0.6340215493890327,0.4237647932919386,709,2.1338710648287487,18134,15092,0.8322488143818242,0.5170348522241618,1.1878499932964515,54,3.6026704573450203,3
Ashanti,Sekyere Central,District,7.21625465,-1.09955606489201,23803,21724,39.8,42.4,24179,38329,14277,13424,20482,20859,1731,2455,73228,0.669812093734637,0.5234200032774349,0.4771673951720956,4186,5.716392636696345,41341,31887,0.7713166106286737,0.330187906265363,0.5441274124573976,67,1.8350944302865517,22
Ashanti,Sekyere East,District,6.77947295,-1.29935419961981,23709,24423,17.3,42.5,12874,17639,13736,12921,20506,23780,1489,2357,74789,0.8278623861797858,0.2358501918731364,0.5074171029668412,3846,5.14246747516346,44286,30503,0.6887729756582216,0.1721376138202142,-1.0250333399730012,184,-0.4917172107217263,173
Ashanti,Sekyere Kumawu,District,6.9098849,-1.23942940155571,20110,20475,23.9,42.9,13090,23038,12071,11740,17308,19228,1511,2538,64396,0.7967265047518479,0.3577551400708118,0.5044967352470124,4049,6.28765761848562,36536,27860,0.7625355813444274,0.20327349524815208,-0.3134135942167989,125,0.31250613248550013,94
Ashanti,Sekyere South,District,6.99532965,-1.50292100938884,36646,41020,22.6,42.8,21298,32338,21744,20666,33678,37497,2643,3848,120076,0.8226290016322996,0.2693127685798994,0.5281590399917596,6491,5.405743029414704,71175,48901,0.687053038285915,0.17737099836770043,-0.6389937212792457,157,-0.4472504982676924,168
Ashanti,Suame Municipal,Municipal,6.738487,-1.62476687694823,52028,40036,8.7,42.7,14098,32285,21799,22427,41237,46222,1842,2763,136290,0.8965588084232152,0.2368845843422114,0.4348713938129996,4605,3.378824565265244,87459,48831,0.558330189002847,0.10344119157678477,-2.2984783973131755,241,-0.5199587464878618,177
Bono,Banda,District,8.1645269,-2.3569966,7746,10025,35.7,43.7,11732,6648,5465,4943,8765,7659,583,764,28179,0.5836615919656482,0.2359203662301714,0.5641213212537279,1347,4.780155434898329,16424,11755,0.7157208962493912,0.41633840803435185,1.0955768833366093,59,-0.4482118567627131,169
Bono,Berekum East Municipal,Municipal,7.4848835,-2.56459096524003,35109,37059,12.6,41.7,15663,12247,17184,16900,31142,36153,1837,3036,106252,0.8525863042578022,0.1152637126830553,0.5135101429996675,4873,4.58626661145202,67295,38957,0.5788988780741511,0.14741369574219776,-1.8394409836447525,224,-1.2545751839888009,225
Bono,Berekum West,District,7.47199419999999,-2.71078914019081,16162,16585,14.8,41.6,11329,6176,8505,8212,14064,15958,1024,1701,49464,0.7709647420346111,0.1248584829370855,0.5064586068952881,2725,5.5090570920265245,30022,19442,0.6475917660382386,0.22903525796538893,-1.3126949597037652,209,-0.8635505973297913,203
Bono,Dormaa Central Municipal,Municipal,7.23948645,-2.85657511014467,39452,35163,15.8,41.7,24994,19538,19428,18659,33320,35322,2360,3613,112702,0.7782293127007507,0.1733598338982449,0.471259130201702,5973,5.299817217085766,68642,44060,0.6418810640715596,0.22177068729924931,-1.443154409635704,211,-0.42547170693332237,165
Bono,Dormaa East,District,7.26432845,-2.64146295349265,22570,22261,19.5,41.7,16759,9261,11782,11286,19943,21068,1611,2209,67899,0.753177513659995,0.1363937613219635,0.4965537239856349,3820,5.626003328473173,41011,26888,0.655628977591378,0.24682248634000503,-1.0702689733881907,188,-0.6558572299494239,188
Bono,Dormaa West,District,6.97538415,-2.9463116043167,17716,12431,23.2,40.8,14423,9745,9360,8406,15341,13222,821,763,47913,0.6989752259303321,0.2033894767599607,0.4123461704315521,1584,3.305992110700645,28563,19350,0.677449847705073,0.3010247740696679,-1.2541545119246753,205,0.584657689602503,71
Bono,Jaman North,District,7.9132614,-2.69723280400663,36119,38856,14.5,42.4,30773,8231,21157,20397,34679,35066,2077,3153,116529,0.7359198139518919,0.0706347776090072,0.5182527509169723,5230,4.488153163590179,69745,46784,0.6707864363036777,0.2640801860481081,-0.9128477796501612,176,-1.2865536926445162,226
Bono,Jaman South,Municipal,7.62036559999999,-2.7963718064665,35814,35016,15.6,42.1,28919,9686,19952,18986,31156,34312,2169,3193,109768,0.736544348079586,0.0882406530136287,0.4943667937314697,5362,4.884848043145543,65468,44300,0.6766664630048268,0.263455651920414,-1.0273472228736433,186,-0.9550757329134651,208
Bono,Sunyani Municipal,Municipal,7.3384389,-2.3309226,64799,68142,10.9,41.5,28006,21645,30599,30055,62754,63470,3005,3712,193595,0.8553371729641778,0.1118055734910509,0.5125732467786461,6717,3.469614401198378,126224,67371,0.5337416022309545,0.14466282703582223,-2.11308934485455,235,-1.3341458771850372,228
Bono,Sunyani West Municipal,Municipal,7.35779433737633,-2.34687996021684,40876,51557,17.6,43.1,28330,21227,22089,21500,42769,43997,2393,3274,136022,0.791724868036053,0.1560556380585493,0.5577769844103296,5667,4.166237814471189,86766,49256,0.5676878039785169,0.20827513196394698,-0.9520748128458342,179,-1.5036108222364375,234
Bono,Tain,District,7.9614185,-2.1422727,39176,34283,21.5,41.9,42235,22022,21764,20345,34230,33737,2388,3104,115568,0.634544164474595,0.1905544787484424,0.4666957078097987,5492,4.752180534403987,67967,47601,0.7003545838421587,0.36545583552540495,-0.5324154844629101,148,0.04410469813797382,124
Bono,Wenchi Municipal,Municipal,7.80281055,-2.08141333112632,38543,39547,23.6,42.2,42124,25271,23537,23131,35042,37424,2381,3243,124758,0.6623543179595697,0.2025601564629122,0.5064284799590216,5624,4.5079273473444585,72466,52292,0.7216073744928656,0.33764568204043033,-0.21795811883661123,118,-0.19172944706332462,142
Bono East,Atebubu Amantin Municipal,Municipal,7.72813859999999,-1.09550967027384,47541,38871,28.8,41.5,59415,36951,29821,28714,41262,40752,1910,2488,144947,0.5900915507047404,0.2549276632148302,0.4498333564782669,4398,3.034212505260544,82014,62933,0.7673445997024898,0.4099084492952596,-0.037742332405784236,107,0.846474497936745,60
Bono East,Kintampo North Municipal,Municipal,8.053714,-1.728919,40030,45840,28.1,43.4,56833,30289,27626,26754,39911,40681,2394,2884,140250,0.5947736185383244,0.215964349376114,0.5338302084546407,5278,3.763279857397504,80592,59658,0.7402471709350804,0.40522638146167556,0.6392700578729897,65,-0.3641208552057784,160
Bono East,Kintampo South,District,7.94321545,-1.73400515142892,28927,25110,26.0,42.3,35811,16394,17639,16708,25454,24559,1961,2063,88384,0.5948248551774077,0.1854860608254887,0.4646816070470233,4024,4.552860246198407,50013,38371,0.7672205226641073,0.4051751448225923,0.06915565573569785,96,0.19257382432659703,107
Bono East,Nkoranza North,District,7.7184776,-1.64389618122841,18832,16615,25.8,41.4,19620,10022,10941,10080,16455,15957,1348,1687,56468,0.6525465750513566,0.1774810512148473,0.4687279600530369,3035,5.374725508252461,32412,24056,0.7421942490435641,0.3474534249486434,-0.3991888498639965,132,0.18647961427740326,108
Bono East,Nkoranza South Municipal,Municipal,7.45296465,-1.67701851419084,38611,33973,18.0,41.6,34349,16840,21684,20374,33264,34501,2164,2655,114642,0.7003803143699516,0.1468920639905095,0.4680508100958889,4819,4.203520524764048,67765,46877,0.691758282299122,0.29961968563004837,-0.9849092408898469,181,-0.275579585802756,148
Bono East,Pru East,District,7.9636217,-0.9549861,32906,27206,30.3,41.2,44232,28477,20812,19916,28721,28766,1175,1450,100840,0.5613645378817929,0.28239785799286,0.452588501463934,2625,2.603133677112257,57487,43353,0.75413571764051,0.43863546211820714,0.022886722838315863,101,1.065681729467262,45
Bono East,Pru West,District,8.03487795,-1.31329234137589,23430,18389,38.3,40.8,33051,28780,14399,13602,20066,19335,1124,1294,69820,0.5266256087081065,0.412202807218562,0.4397283531409168,2418,3.4631910627327414,39401,30419,0.772036242734956,0.4733743912918935,0.3886150353986822,76,2.066734931845852,18
Bono East,Sene East,District,7.6658435,-0.182426172494555,23216,17927,49.5,41.5,35965,31452,16311,14627,21108,18084,1014,937,72081,0.5010474327492682,0.4363424480792441,0.4357241815132586,1951,2.7066772103605667,39192,32889,0.8391763625229639,0.4989525672507318,1.2648926851932871,53,2.3827275852220318,10
Bono East,Sene West,District,7.74897775,-0.618112944814146,25949,16360,26.8,41.0,33389,14249,14065,13730,20496,19425,1064,1324,70104,0.5237218988930732,0.2032551637567043,0.3866789571958685,2388,3.406367682300582,39921,30183,0.7560682347636583,0.4762781011069268,-0.3553292063642634,126,1.160184060808218,42
Bono East,Techiman Municipal,Municipal,7.5279454,-1.97466940505838,89186,68047,9.8,41.4,57462,28058,43306,42796,71814,77235,3579,4605,243335,0.763856411942384,0.1153060595475373,0.43277810637716,8184,3.363264635173732,149049,94286,0.6325839153566948,0.23614358805761604,-1.9178267588538203,226,-0.4760286086064508,171
Bono East,Techiman North,District,7.70365499999999,-1.98577027897075,34326,31765,15.0,41.8,27555,15369,18455,17983,30106,31934,1687,2364,102529,0.731246769206761,0.1498990529508724,0.4806251985898231,4051,3.9510772561909313,62040,40489,0.6526273372018053,0.268753230793239,-1.22441002223369,198,-0.5456953646563467,179
Central,Abura Asebu Kwamankese,District,5.2698722,-1.18890498156872,39299,40203,28.0,44.1,33503,44229,22987,21976,33681,37927,2976,4918,124465,0.7308239264050135,0.3553529104567549,0.5056853915624764,7894,6.342345237617001,71608,52857,0.7381437828175623,0.2691760735949865,0.25373163864353265,82,0.1465382016676435,111
Central,Agona East,District,5.63553575,-0.654757357749996,32681,31928,25.9,43.6,22438,53181,17280,16748,27957,31096,2242,3314,98637,0.7725194399667468,0.5391587335381246,0.4941726384868981,5556,5.632774719425774,59053,39584,0.6703131085634938,0.22748056003325323,-0.2955937719520016,123,1.009496394000152,50
Central,Agona West Municipal,Municipal,4.8901537,-1.9664135,47040,43603,21.0,43.7,26617,49785,23329,22597,39083,44191,2961,4408,136569,0.8051021827794009,0.3645410012521143,0.4810410070275697,7369,5.39580724761842,83274,53295,0.6399956769219685,0.19489781722059907,-0.7818256755457106,169,0.048215609638855794,122
Central,Ajumako Enyan Essiam,District,5.41243515,-0.984801059019988,38466,38589,29.6,43.5,29157,49126,22490,21041,31659,36846,3112,5438,120586,0.7582057618629028,0.4073938931550926,0.5007981312049834,8550,7.090375333786676,68505,52081,0.7602510765637545,0.24179423813709722,0.15503357184211058,87,0.5843319169331065,72
Central,Asikuma Odoben Brakwa,District,5.62649825,-1.02551876426311,43495,36507,29.0,42.3,32209,46532,24263,22728,34621,38201,2939,4241,126993,0.7463718472671722,0.3664138968289591,0.4563260918477038,7180,5.653854936886285,72822,54171,0.7438823432479196,0.2536281527328278,-0.37476985156279474,131,0.9093011872278859,55
Central,Assin Central Municipal,Municipal,5.73294244999999,-1.31730368183195,31134,25993,18.1,42.8,12994,30642,15976,15650,26152,27674,1421,1880,88753,0.8535936813403491,0.3452503013982625,0.4550037635443835,3301,3.719310896533075,53826,34927,0.6488871549065507,0.14640631865965092,-1.3522131679992266,210,0.22033215776464748,103
Central,Assin North,District,5.82545685,-1.37392719579152,29624,21458,31.9,42.0,22155,38011,15174,14283,23465,23635,1830,2152,80539,0.7249158792634625,0.4719576850966612,0.420069691867977,3982,4.944188529780603,47100,33439,0.7099575371549894,0.27508412073653754,-0.510279460051933,141,1.735207168886186,24
Central,Assin South,District,5.52889644999999,-1.2709401638536,35793,29955,27.4,41.7,27205,38472,20688,19559,29056,31148,2339,3205,105995,0.7433369498561253,0.3629605170055191,0.4556032122650119,5544,5.230435397896128,60204,45791,0.7605973025048169,0.2566630501438747,-0.5101429177854282,140,1.0375813738364987,48
Central,Awutu Senya West,District,5.61965885,-0.520145612112832,54977,45374,22.5,44.5,40850,92561,30859,30250,45045,49125,2315,3866,161460,0.7469961600396383,0.5732751145794625,0.4521529431694751,6181,3.82819274123622,94170,67290,0.7145587766804715,0.2530038399603617,-0.17286173744766498,115,1.3274159531955974,36
Central,Awutu Senya East Municipal,Municipal,5.40379055,-0.518157686947431,84690,72118,10.6,42.9,24484,99262,39763,39956,72810,77543,2957,3498,236527,0.8964853906742147,0.4196645626080743,0.459912759553084,6455,2.729075327552457,150353,86174,0.5731445331985394,0.10351460932578527,-1.9575257147073826,228,0.22042601767857814,102
Central,Cape Cape Metropolitan Area (CCMA)-Cape Coast South & Cape Coast North,Metropolitan,5.1115501,-1.2484127,67570,65035,12.9,44.3,20509,51556,27622,27138,61645,64688,3523,2749,187365,0.8905398553625277,0.2751634510180663,0.4904415368952905,6272,3.3474768499986656,126333,61032,0.4831041770558761,0.10946014463747233,-1.7368832752073033,222,-1.1068622793016951,214
Central,Effutu Municipal,Municipal,5.38339225,-0.597395635326539,27520,52842,21.7,44.2,20228,32581,14186,14268,39432,36492,1613,2825,108816,0.8141082193795031,0.2994136891633583,0.6575495881137852,4438,4.078444346419644,75924,32892,0.4332226963805911,0.18589178062049694,-0.5587669837884925,152,-1.9110871319177047,245
Central,Ekumfi,District,5.28914455,-0.908864632637807,17067,18338,31.5,45.6,18491,33670,10736,10600,14073,16944,1575,2813,56741,0.6741157187924076,0.5933980719409245,0.5179494421691851,4388,7.733385030225057,31017,25724,0.8293516458716188,0.3258842812075924,1.3478449317754544,51,1.2081360119774507,41
Central,Gomoa Central,District,5.47699369999999,-0.589745989100534,28310,24080,18.8,44.1,17534,37766,15233,14969,21856,26134,1504,2896,82592,0.7877034095311894,0.4572597830298334,0.4596297003244894,4400,5.327392483533514,47990,34602,0.7210252135861638,0.21229659046881055,-0.517653609658988,145,0.6976156904412245,68
Central,Gomoa East,District,5.47699369999999,-0.589745989100534,101923,95607,14.4,43.7,43210,137369,55840,55327,93198,96950,3200,4182,308697,0.8600245548223663,0.4449962260728157,0.4840125550549283,7382,2.391341671606786,190148,118549,0.6234564654900393,0.13997544517763372,-1.2262048680007915,200,0.2161779344008138,104
Central,Gomoa West,District,5.38725545,-0.833638570821268,41686,40125,28.3,44.4,39425,65362,24256,23445,32103,40607,3061,6040,129512,0.6955880536166532,0.5046791030946939,0.4904597181308137,9101,7.027148063499907,72710,56802,0.781213038096548,0.3044119463833468,0.5688630197791724,66,1.0451430304615474,47
Central,Komenda Edina Eguafo Abirem Municipal,Municipal,5.1302015,-1.43995928979516,53152,53030,25.1,44.2,43258,75202,30377,29458,46636,50105,3557,5884,166017,0.7394363227862206,0.4529777071022847,0.4994255146823378,9441,5.686767017835523,96741,69276,0.7160976214841691,0.2605636772137794,0.0679552288480343,97,0.5475170480342126,73
Central,Mfantsiman Municipal,Municipal,5.27644145,-1.03472089878279,53153,55811,24.0,44.8,39497,67043,30395,29546,44225,55585,3413,5741,168905,0.7661584914596963,0.3969272668067848,0.5121966888146544,9154,5.419614576241083,99810,69095,0.6922653040777477,0.23384150854030372,0.03712776016166913,100,-0.036003137434322235,133
Central,Twifo Ati Morkwa,District,5.61529845,-1.57822136908747,31704,30813,34.1,42.7,27448,44389,19741,18593,28331,30151,1926,2109,100851,0.7278361146642076,0.4401443713993911,0.4928739382887854,4035,4.000951899336645,58482,42369,0.7244793269724018,0.2721638853357924,0.09778688697041042,93,1.0097287769764718,49
Central,Twifo Heman Lower Denkyira,District,5.49471475,-1.53636464977824,22649,19075,32.1,42.4,17101,36601,12495,11856,19039,19664,1349,1672,66075,0.7411880438895195,0.553931138857359,0.457170932796472,3021,4.572077185017026,38703,27372,0.7072319975195721,0.25881195611048047,-0.2760895797585688,122,1.7818953588376159,23
Central,Upper Denkyira East Municipal,Municipal,5.83523424999999,-1.73920835777296,34729,35865,24.3,43.8,23359,30732,20144,19403,33371,33259,1765,2199,110141,0.7879173059986744,0.27902415994044,0.5080460095758846,3964,3.599023070427906,66630,43511,0.6530241632898094,0.21208269400132562,-0.43714095922134133,136,-0.4700843412083684,170
Central,Upper Denkyira West,District,6.10783305,-2.06931071266353,33332,25814,24.5,43.6,25637,44004,16093,15786,30896,25738,1148,1364,91025,0.7183521010711342,0.4834276297720406,0.4364454062827579,2512,2.759681406207086,56634,34391,0.6072500618003319,0.28164789892886577,-0.6651746411225452,160,1.0567003560957176,46
Eastern,Abuakwa North Municipal,Municipal,6.2336986,-0.382588987736012,25086,26833,15.7,42.9,11029,15507,12352,11924,22357,24610,2063,2889,76195,0.8552529693549445,0.2035172911608373,0.5168242839808163,4952,6.499114115099416,46967,29228,0.6223092809845211,0.14474703064505545,-1.2717051112999498,206,-0.9814787773167276,209
Eastern,Abuakwa South Municipal,Municipal,6.1727705,-0.470361048613095,29553,31123,21.1,43.4,17315,19569,14490,13885,27170,27633,2484,3389,89051,0.8055608583845213,0.2197504800619869,0.5129375700441691,5873,6.595097191497008,54803,34248,0.6249292921920333,0.1944391416154787,-0.7957736274526265,170,-0.8290572079348653,200
Eastern,Achiase,District,5.8354534,-0.9966928,17382,18733,29.9,44.6,14484,17894,10513,9720,15422,17107,1477,2109,56348,0.7429544970540214,0.317562291474409,0.5187041395542018,3586,6.364023567828494,32529,23819,0.7322389252666851,0.2570455029459786,0.427564229355143,73,-0.23081277972892908,145
Eastern,Akwapim North Municipal,Municipal,5.9014961,-0.14597334325382,30652,42982,20.1,43.2,15299,22608,16126,15555,30768,35625,2652,4589,105315,0.854731044960357,0.2146702748896168,0.5837249096884591,7241,6.875563784835968,66393,38922,0.5862365008359315,0.145268955039643,-0.8417810146872551,173,-1.429885184555204,232
Eastern,Akwapim South Municipal,Municipal,8.25846,0.508747,25689,27716,19.4,43.5,11667,23583,11963,11554,23466,26024,1672,2243,76922,0.848326876576272,0.3065832921660903,0.5189776238179946,3915,5.089571253997556,49490,27432,0.5542937967266114,0.15167312342372796,-1.1562311581129743,194,-0.6828641074181563,192
Eastern,Akyemansa,District,6.0815994,-1.11546439579942,32660,25244,23.6,42.4,25196,24107,17060,16074,25881,26687,2325,3011,91038,0.7232364507128891,0.2648015114567543,0.4359629731970157,5336,5.861288692633845,52568,38470,0.7318140313498707,0.2767635492871109,-0.6462759053330223,158,0.4588788013057521,80
Eastern,Asene Manso Akroso,District,5.85516295,-0.8089562448565,26201,23526,25.7,42.5,18687,23397,14244,13527,21551,23476,2013,2687,77498,0.7588711966760433,0.301904565279104,0.4731031431616627,4700,6.0646726367132056,45027,32471,0.7211450907233438,0.2411288033239567,-0.5128342646193725,142,0.3349829881989488,93
Eastern,Asuogyaman,District,6.36279085,0.0952598707485648,32892,35186,21.8,43.1,18900,21671,16728,16450,29528,32546,2467,3537,101256,0.8133443944062574,0.2140218851228569,0.5168483210435089,6004,5.929525163940903,62074,39182,0.6312143570577053,0.1866556055937426,-0.8259151298990852,171,-0.8081116990437671,199
Eastern,Atiwa East,District,6.3954833,-0.597296233359515,22465,19027,18.4,42.4,12972,11549,12055,11100,18975,18809,1641,2067,64647,0.7993410367070397,0.1786471143285844,0.4585703268099875,3708,5.735765000696088,37784,26863,0.7109623120897735,0.2006589632929603,-1.0840081164516402,189,-0.33273389056936115,153
Eastern,Atiwa West,District,6.20778059999999,-0.635808682575408,22581,16870,18.9,42.5,12526,18236,11218,10550,18405,17234,1665,2147,61219,0.7953903199986933,0.2978813766967771,0.4276190717599047,3812,6.226825005308809,35639,25580,0.7177530233732708,0.20460968000130675,-1.1125982495779223,192,0.4548930431666496,81
Eastern,Ayensuano,District,5.94469995,-0.449937193103216,34538,25736,29.1,42.9,25899,43995,17710,16610,26702,27364,2749,3459,94594,0.7262088504556314,0.465092923441233,0.4269834422802535,6208,6.5627841089286845,54066,40528,0.7496023378833278,0.27379114954436856,-0.25430578468570236,120,1.4951961032001226,28
Eastern,Birim Central Municipal,Municipal,5.97391735,-1.00480959493596,25276,26732,11.9,41.9,9947,9297,12418,11876,22690,26007,1366,1945,76302,0.8696364446541375,0.1218447747110167,0.5139978464851561,3311,4.339335797226809,48697,27605,0.5668727026305522,0.13036355534586253,-1.9120123284050676,225,-1.3253947401198172,227
Eastern,Birim North,District,6.3681437,-1.02271793293055,28892,24334,18.3,42.6,17609,14185,15155,14288,24286,24728,1902,2310,82669,0.7869939154943207,0.1715878987286649,0.4571825799421335,4212,5.095017479345341,49014,33655,0.6866405516791121,0.21300608450567926,-1.0911649183916576,190,-0.42909450966609625,166
Eastern,Birim South,District,5.9375343,-1.0087951,11610,11912,24.9,43.6,7286,10484,6342,5790,10135,11093,943,1351,35654,0.7956470522241543,0.2940483536209121,0.506419522149477,2294,6.434060694452235,21228,14426,0.6795741473525533,0.20435294777584567,-0.40004000240194765,133,-0.29720319810074536,149
Eastern,Denkyembuor,District,6.05,-0.8,24095,27629,18.1,42.3,15302,9980,12977,12328,23028,24760,1861,2075,77029,0.8013475444313181,0.129561593685495,0.5341620910989096,3936,5.109763855171429,47788,29241,0.6118900142295137,0.19865245556868194,-1.1179028988928825,193,-1.233390272336592,223
Eastern,Fanteakwa North,District,6.49761694999999,-0.362546050326661,21329,15599,28.9,41.9,16278,17663,10479,9580,16908,16701,1470,1849,56987,0.7143559057328864,0.3099478828504746,0.4224165944540728,3319,5.824135329110148,33609,23378,0.6955874914457437,0.28564409426711357,-0.6996832439458622,163,0.8966834934907177,56
Eastern,Fanteakwa South,District,6.37117379999999,-0.311872167608319,20099,16378,21.7,41.7,9765,13448,9261,8896,16955,16368,1366,1788,54634,0.8212651462459275,0.2461470878939854,0.4489952572854127,3154,5.77296189186221,33323,21311,0.6395282537586652,0.1787348537540725,-1.4505786473498863,212,0.09259305281434446,116
Eastern,Kwaebibirem Municipal,Municipal,6.23359759999999,-0.87590978580917,42264,37174,19.6,42.9,24805,24359,21732,20528,35226,37175,3152,3885,121698,0.796175779388322,0.2001594110010024,0.4679624361136987,7037,5.782346464198262,72401,49297,0.680888385519537,0.20382422061167804,-0.9642712483379133,180,-0.42938309129888036,167
Eastern,Kwahu Afram Plains North,District,6.8753584,0.0047456123339843,25007,16163,48.5,41.9,28103,32016,13563,11822,20752,17918,1252,1248,66555,0.5777477274434678,0.4810457516339869,0.3925916929803255,2500,3.7562917887461498,38670,27885,0.7211016291698992,0.4222522725565322,0.4880793327595769,71,2.4532664291306,8
Eastern,Kwahu Afram Plains South,District,6.8854777,-0.460380290065423,28041,17113,39.1,41.6,30008,33075,15184,13664,22847,19800,1392,1115,74002,0.5944974460149726,0.4469473798005459,0.3789918944058112,2507,3.387746277127645,42647,31355,0.7352217037540741,0.40550255398502744,-0.016045535398768938,103,2.306297782075256,14
Eastern,Kwahu East,District,6.73342465,-0.81009459846416,27342,25934,29.4,42.0,19159,25110,14034,12923,24195,23179,2341,3561,80233,0.761207981753144,0.3129634938242369,0.486785794729334,5902,7.356075430309224,47374,32859,0.6936083083547938,0.23879201824685603,-0.518983907765682,146,0.4056026055023148,87
Eastern,Kwahu South Municipal,Municipal,8.25846,0.508747,25687,26212,28.8,43.4,18927,22821,14332,13620,21905,24447,2130,3417,79851,0.7629710335499869,0.285794792801593,0.5050579009229464,5547,6.946688206785137,46352,33499,0.7227088367276493,0.23702896645001315,-0.05704699109237676,109,-0.10287432723790184,134
Eastern,Kwahu West Municipal,Municipal,6.49118254999999,-0.728456087972531,51012,42241,15.1,41.9,24009,24021,26637,25539,40551,44751,3344,4607,145429,0.8349091309161172,0.1651733835754904,0.4529720223478065,7951,5.467272689766141,85302,60127,0.7048721014747603,0.16509086908388282,-1.4891253467776793,213,-0.365505473093142,161
Eastern,Lower Manya Krobo Municipal,Municipal,6.2127831,-0.0404975690174626,36376,48533,19.8,43.4,24179,24965,18640,18300,35520,42445,2707,4237,121849,0.8015658725143415,0.2048847343843609,0.57158840641157,6944,5.698856781754467,77965,43884,0.5628679535689092,0.19843412748565847,-0.7698347179303097,167,-1.4111522369873217,231
Eastern,New Juaben North Municipal,Municipal,6.1364245,-0.312846157003848,28972,34529,10.6,41.7,8759,9993,12629,12586,29655,29388,1878,2580,88716,0.9012692186302358,0.112640335452455,0.5437552164532842,4458,5.025023671040173,59043,29673,0.5025659265281236,0.09873078136976421,-2.188430788319207,237,-1.7047105753930267,242
Eastern,New Juaben South Municipal,Municipal,6.0721368,-0.260652306105858,48553,45659,8.5,41.1,11820,16248,17745,17784,42075,44834,2987,4316,129741,0.908895414710847,0.1252341202858001,0.484641022375069,7303,5.628906822053168,86909,42832,0.4928373356039075,0.091104585289153,-2.731407519612429,256,-1.1887371062071033,221
Eastern,Nsawam Adoagyiri Municipal,Municipal,5.81791215,-0.36426765,55497,48522,13.0,43.4,24185,45530,25823,25755,47801,49554,2793,3871,155597,0.8445664119488165,0.2926148961740907,0.4664724713754218,6664,4.282858924015245,97355,58242,0.5982435416773664,0.15543358805118346,-1.509891593849196,215,-0.39279657847704325,163
Eastern,Okere,District,6.04034605,-0.127770489495342,18071,16536,24.0,42.4,11127,18125,8691,8377,14452,16239,1439,2477,51675,0.7846734397677794,0.3507498790517658,0.4778224058716445,3916,7.578132559264635,30691,20984,0.6837183539148285,0.21532656023222063,-0.7709888960828418,168,0.43301408230312644,84
Eastern,Suhum Municipal,Municipal,6.035885,-0.4552751,49088,34705,17.6,42.0,23909,36085,21768,20842,36414,40187,3044,4148,126403,0.8108510082830312,0.2854758194030205,0.4141754084470063,7192,5.689738376462584,76601,49802,0.6501481703894205,0.18914899171696875,-1.61645212790177,220,0.4232548727581521,85
Eastern,Upper Manya Krobo,District,6.40201115,-0.134429386146108,28918,16271,32.7,40.5,24935,26939,13252,12171,20360,20752,1981,2096,70612,0.6468730527389113,0.3815073925111879,0.3600655026665781,4077,5.77380615192885,41112,29500,0.7175520529285854,0.35312694726108873,-0.8461395043034512,174,2.144808711360937,17
Eastern,Upper West Akim,District,5.80678025,-0.540057196199224,33617,27069,29.7,43.7,27158,47183,17860,17309,26665,28405,2263,3353,95855,0.716676229721976,0.4922330603515727,0.4460501598391721,5616,5.8588493036357,55070,40785,0.7406028690757218,0.283323770278024,0.048482916081189216,99,1.338254875846964,33
Eastern,West Akim Municipal,Municipal,5.9070609,-0.68318054757923,40323,36708,23.7,43.0,27295,33081,20654,19996,33607,36756,2767,3901,117681,0.7680594148588132,0.2811074005149514,0.4765354208046111,6668,5.666165311307688,70363,47318,0.6724841180734192,0.23194058514118676,-0.6570086628501617,159,-0.02737977233749196,132
Eastern,Yilo Krobo Municipal,Municipal,6.1564095,-0.167401779755807,45081,36387,21.5,42.1,25873,36007,20749,20181,35736,38765,2993,3974,122398,0.7886158270559976,0.2941796434582264,0.4466416261599646,6967,5.692086472001177,74501,47897,0.642904122092321,0.21138417294400236,-1.2443529133755635,202,0.30768112867929215,96
Greater Accra,Ablekuma Central Municipal,Municipal,5.5541808,-0.24078224491606,71986,49569,9.4,45.2,20160,61784,23738,23852,55723,58491,3133,4208,169145,0.8808123207898548,0.3652723994206154,0.4077907120233639,7341,4.340063259333708,114214,54931,0.4809480448981736,0.11918767921014517,-1.994559229378307,229,-0.36064707900598936,158
Greater Accra,Ablekuma North Municipal,Municipal,5.58719365,-0.263259064824942,69225,45302,8.3,42.9,11382,58368,22388,22293,51922,56500,2472,3633,159208,0.928508617657404,0.3666147429777398,0.3955573794825674,6105,3.834606301190895,108422,50786,0.4684104701997749,0.071491382342596,-2.812605183642497,258,0.10883495833590393,114
Greater Accra,Ablekuma West Municipal,Municipal,5.5431939,-0.26615017413473,61592,46044,8.9,43.0,12511,60497,22920,22934,48489,53014,2470,3663,153490,0.9184898038960192,0.3941429409082025,0.4277750938347764,6133,3.995700045605577,101503,51987,0.5121720540279597,0.0815101961039808,-2.430825962549212,246,0.11543256679223748,113
Greater Accra,"Accra Metropolitan Area (AMA)-Ablekuma South, Ashiedu Keteke & Okaikoi South",Metropolitan,5.55381875,-0.205849787615075,121103,84691,11.1,43.9,46139,105374,35341,35862,94041,106780,1895,3078,276997,0.8334314090044297,0.3804156723719029,0.4115328921154164,4973,1.7953263031729585,200821,76176,0.3793228795793268,0.1665685909955703,-2.3845682356141915,243,-0.1270635497429841,137
Greater Accra,Ada East,District,5.8761016,0.549568161630084,23660,24880,28.2,44.2,22384,32786,14190,13681,21337,23053,1507,2643,76411,0.7070578843360249,0.4290743479341979,0.5125669550885867,4150,5.431155200167515,44390,32021,0.7213561612975895,0.2929421156639751,0.3619396230709791,78,0.4465357856340697,83
Greater Accra,Ada West,District,5.9040093,0.420370257026968,22587,22495,40.1,44.7,25206,45090,15739,15266,20114,21662,1279,2027,76087,0.6687213321592388,0.59261108993652,0.4989796371057184,3306,4.345026088556521,41776,34311,0.8213088854844887,0.3312786678407612,1.3700418305936666,50,1.6368801640720025,26
Greater Accra,Adentan Municipal,Municipal,5.7042433,-0.1690967,108423,82032,8.3,41.8,18956,99635,37515,38001,90372,91225,4078,4780,265971,0.9287290719664926,0.3746085099503329,0.4307159171457824,8858,3.330438280865207,181597,84374,0.4646222129220196,0.07127092803350743,-2.9096484971054384,259,0.1463158610456201,112
Greater Accra,Ashaiman Municipal,Municipal,5.6993574,-0.0348533202566188,90383,55066,7.5,43.3,23548,72971,31383,31228,68910,70025,3117,3397,208060,0.8868211092953956,0.3507209458809959,0.3785931838651348,6514,3.130827645871383,138935,69125,0.4975348184402778,0.1131788907046044,-2.6020953701605243,251,0.15925062545706614,110
Greater Accra,Ayawaso Central Municipal,Municipal,5.59137939999999,-0.212668442666915,39158,30825,12.2,42.8,8646,41548,12311,12537,32353,33339,1824,2467,94831,0.90882728221784,0.4381267728907214,0.4404641127130874,4291,4.524891649355169,65692,29139,0.4435699933020763,0.09117271778215996,-2.4748112084632967,248,0.2251934546799014,101
Greater Accra,Ayawaso East Municipal,Municipal,5.5828425,-0.194266228463183,18510,19828,15.4,44.0,10085,20605,7206,7460,16935,18521,1297,1585,53004,0.8097313410308655,0.3887442457173043,0.517189211748135,2882,5.437325484869066,35456,17548,0.4949232851985559,0.19026865896913447,-1.2453773933793484,203,-0.48774647161728174,172
Greater Accra,Ayawaso North Municipal,Municipal,5.5908829,-0.199044848506062,22947,23128,13.9,43.8,9042,21546,8488,8823,20220,22837,1335,1683,63386,0.8573502035149718,0.3399173319029439,0.5019641888225719,3018,4.761303757927618,43057,20329,0.4721415797663562,0.14264979648502818,-1.665691454090401,221,-0.7167422100639461,194
Greater Accra,Ayawaso West Municipal,Municipal,5.62669775,-0.179111178909241,27690,33319,9.3,41.6,4076,26430,7177,7117,30110,27974,1327,1598,75303,0.9458720104112718,0.3509820325883431,0.5461325378222885,2925,3.884307398111629,58084,17219,0.2964499690103987,0.05412798958872822,-3.003242636793071,261,-0.9990253791055549,210
Greater Accra,Ga Central Municipal,Municipal,5.3203951,-2.0334832,135748,95640,8.3,42.6,23248,145106,50214,50630,106324,113999,5054,6011,332232,0.9300248019456284,0.4367610585374076,0.413331719881757,11065,3.330503985166992,220323,111909,0.5079315368799444,0.06997519805437158,-2.6496077483896707,253,0.4698045781407185,78
Greater Accra,Ga East Municipal,Municipal,5.669162,-0.333376,110684,92554,10.1,41.8,18905,105771,39761,40380,96002,97660,4252,5324,283379,0.9332872231181564,0.3732492527674951,0.4553971206172074,9576,3.379220055120528,193662,89717,0.4632658962522333,0.06671277688184363,-2.7472268211544613,257,-0.004544931806152144,128
Greater Accra,Ga North Municipal,Municipal,5.669162,-0.333376,87022,76640,10.5,42.3,18918,86352,35527,36103,77522,79032,3432,3676,235292,0.9195977763799874,0.3669993029937269,0.4682821913455781,7108,3.020927188344696,156554,78738,0.5029446708483973,0.08040222362001259,-2.3842591748497046,242,-0.1271914064830317,138
Greater Accra,Ga South Municipal,Municipal,5.669162,-0.333376,125103,103262,15.8,44.1,49991,179053,61267,60489,107044,111736,4181,5404,350121,0.857217933228798,0.5114032006077899,0.4521796247235785,9585,2.737624992502592,218780,131341,0.6003336685254593,0.14278206677120198,-1.2768274403972568,207,0.643911382390653,69
Greater Accra,Ga West Municipal,Municipal,5.669162,-0.333376,110786,92906,10.5,43.3,35609,123514,55150,55457,97011,99245,3382,4054,314299,0.8867034257188219,0.3929824784679557,0.4561102056045402,7436,2.365899986955097,196256,118043,0.601474604598076,0.11329657428117812,-1.7705763993606807,223,0.09452541845391159,115
Greater Accra,Korle Klottey Municipal,Municipal,5.55901944999999,-0.19823054970895,29874,23696,10.6,43.4,6313,23554,7480,7583,24034,25651,1594,2291,68633,0.9080180088295716,0.3431876793962088,0.4423371289901064,3885,5.6605423047222185,49685,18948,0.3813625842809701,0.09198199117042838,-2.6242322844538095,252,-0.5147332717990825,176
Greater Accra,Kpone Katamanso Municipal,Municipal,5.77159775,-0.0733651054089466,151899,121007,10.5,43.1,38226,156281,69740,70182,132130,132218,3852,4706,412828,0.907404536513996,0.3785620161423159,0.4434017573816625,8558,2.073018303022082,264348,148480,0.561683840997473,0.092595463486004,-2.0796463651715356,232,0.0464002969761991,123
Greater Accra,Krowor Municipal,Municipal,5.60941925,-0.0769277820845922,54725,50079,12.4,42.4,10206,61701,18895,19313,49619,50062,2221,2902,143012,0.9286353592705509,0.4314393197773613,0.4778348154650585,5123,3.5822168769054343,99681,43331,0.4346966824169099,0.07136464072944915,-2.4812264444056136,249,-0.00795687053441786,129
Greater Accra,La Dade-Kotopon Municipal,Municipal,5.58947605,-0.156988356399583,59055,43079,8.9,43.1,7669,51992,19006,19124,46798,49510,2295,3531,140264,0.9453245308846177,0.3706724462442252,0.4217890222648677,5826,4.153596075971026,96308,43956,0.4564106823939859,0.05467546911538235,-2.716660743266794,254,-0.12311494925129056,136
Greater Accra,La Nkwantanang Madina Municipal,Municipal,5.74468145,-0.172508699400876,83831,74454,11.3,42.7,17028,77868,31134,31338,74729,76189,3177,4190,220757,0.9228654131012832,0.3527317367059708,0.4703793789683166,7367,3.3371535217456296,150918,69839,0.4627612345777177,0.07713458689871677,-2.402263430900777,244,-0.36318397310810274,159
Greater Accra,Ledzokuku Municipal,Municipal,5.6050983,-0.114493361214251,84358,72808,11.3,43.3,18575,82055,29909,30229,72722,76060,3468,4916,217304,0.914520671501675,0.377604646025844,0.4632554114757645,8384,3.8581894488826713,148782,68522,0.4605530238872982,0.08547932849832496,-2.2711483499697214,239,-0.3155025822840846,151
Greater Accra,Ningo-Prampram,Municipal,5.81176965,0.146110955005239,71636,62214,19.4,44.0,35619,92454,35324,35499,64008,63476,2539,3827,204673,0.8259711833021454,0.4517156635218128,0.4648038849458349,6366,3.1103272048584816,127484,77189,0.6054799033604217,0.17402881669785464,-1.0046452807418482,182,0.3984127690999857,88
Greater Accra,Okaikoi North Municipal,Municipal,5.6104365,-0.2395459,63259,54414,11.1,42.4,12770,54359,21231,21542,54554,56884,2636,3599,160446,0.9204093589120328,0.3387993468207372,0.4624170370433319,6235,3.886042656096132,111438,49008,0.4397781726161632,0.0795906410879672,-2.587437001581376,250,-0.35673364642854405,157
Greater Accra,Shai-Osudoku,District,5.95875335,0.161872328401567,33556,35351,23.5,44.2,22754,30351,18546,18157,32871,31732,1719,2585,105610,0.7845469179055014,0.2873875579964018,0.5130248015441102,4304,4.075371650411893,64603,41007,0.63475380400291,0.21545308209449865,-0.40022704464833897,134,-0.587435808678074,180
Greater Accra,Tema Metropolitan Area (TMA)-Tema Central & Tema East,Metropolitan,5.6698,-0.01657,69392,55541,11.6,43.8,19800,78852,24565,24996,59728,60769,1794,2642,174494,0.8865290497094456,0.45188946324802,0.4445662875301161,4436,2.542207754994441,120497,53997,0.4481190403080574,0.11347095029055443,-2.1586426312893794,236,0.08412306657871414,117
Greater Accra,Tema West Municipal,Municipal,5.65076355,-0.0688760444019398,81595,60403,8.2,42.0,10773,76946,27080,27146,66160,67893,3606,4339,196224,0.9450984589041096,0.3921334801043705,0.42537923069339,7945,4.048944063926941,134053,62171,0.4637792514900822,0.054901541095890405,-2.9438517264678383,260,0.19706581071625456,106
Greater Accra,Weija Gbawe Municipal,Municipal,5.55414475,-0.296466750643799,85093,61436,8.7,42.9,16714,84797,33744,33401,68119,71627,3047,3736,213674,0.9217780356992428,0.3968522141205762,0.4192753652860526,6783,3.174462030944336,139746,73928,0.5290169307171583,0.07822196430075723,-2.4545807838370584,247,0.22879513308242033,100
North East,Bunkpurugu Nakpanduri,District,10.632198,-0.180118,16889,34450,38.3,45.5,31770,8825,15560,15485,23265,23614,1579,2881,82384,0.614366867352884,0.1071203146241988,0.6710298213833538,4460,5.413672557778209,46879,35505,0.7573753706350391,0.38563313264711596,2.0942412311044905,41,-2.0890774216205985,250
North East,Chereponi,District,10.1792653999999,0.207987165887793,18122,27082,53.8,44.2,49085,32497,21399,20573,20495,22457,940,1312,87176,0.4369436542167569,0.3727746168670276,0.5991062737810813,2252,2.5832798017803067,42952,44224,1.029614453343267,0.5630563457832432,3.620157086508303,19,0.9358387065945583,53
North East,East Mamprusi Municipal,Municipal,10.45279035,-0.416678651029704,27208,74804,54.7,47.4,98293,31628,44042,41952,44297,50910,2780,4025,188006,0.4771815793112985,0.1682286735529717,0.7332862800454848,6805,3.619565333021287,95207,92799,0.9747077420777884,0.5228184206887014,4.623235973612845,5,-1.7676134480338528,244
North East,Mamprugu Moagduri,District,10.23964,-1.27428,21572,15425,44.5,42.4,40473,43003,16277,15472,16808,17970,968,1251,68746,0.4112675646583074,0.6255345765571815,0.416925696678109,2219,3.2278241643150145,34778,33968,0.9767094139973548,0.5887324353416926,2.0055779216554366,42,3.548085545181296,4
North East,West Mamprusi Municipal,Municipal,10.29738455,-0.764055036110824,31319,66367,41.5,45.8,82262,26996,39813,38256,43613,48368,2286,3419,175755,0.5319507268641006,0.1536001820716338,0.6793911102921606,5705,3.2459958464908536,91981,83774,0.9107750513693044,0.4680492731358994,3.116322450137782,26,-1.5326334528123886,236
North East,Yunyoo Nasuan,District,10.4415225,-0.0276844142154081,10414,18846,56.9,47.0,32999,18812,14196,13423,12891,13990,940,1439,56879,0.4198386047574676,0.3307371789236801,0.6440874914559125,2379,4.182562984581304,26881,29998,1.115955507607604,0.5801613952425324,4.910165603146773,2,0.06746620694959424,121
Northern,Gushegu Municipal,Municipal,9.9185016,-0.2164706,36081,41484,51.5,44.3,92056,74095,39252,37148,34170,39410,1939,2046,153965,0.4020978793881726,0.4812457376676517,0.53482885321988,3985,2.588250576429708,73580,80385,1.092484370752922,0.5979021206118273,3.6156383954728977,20,1.996266235563238,19
Northern,Karaga,District,9.9267799,-0.4316607,25654,34057,50.5,46.5,69495,50110,28047,26467,25893,30391,1737,1690,114225,0.3915955351280368,0.438695557014664,0.5703639195458123,3427,3.000218866272707,56284,57941,1.029439982943643,0.6084044648719632,4.05395029421899,13,0.9717186420461237,51
Northern,Kpandai,District,8.4635789,-0.0119853,41265,29199,48.6,42.1,64398,67683,28295,27454,32983,33691,1603,2187,126213,0.4897672981388605,0.5362601316821564,0.4143818119891008,3790,3.0028602441903764,66674,59539,0.8929867714551399,0.5102327018611394,1.5155722250996855,49,2.9837246368451207,5
Northern,Kumbungu,District,9.5591282,-0.9467086,20044,40208,45.0,46.4,56077,39469,26246,24088,26963,28760,2082,2447,110586,0.492910494999367,0.3569077460076321,0.6673305450441479,4529,4.09545512090138,55723,54863,0.9845665165192112,0.507089505000633,3.7663162840268045,16,-0.34735601761653484,154
Northern,Mion,District,9.45284905,-0.335525511842833,23875,26064,53.4,44.5,57646,40227,23000,21991,22749,24286,1413,1491,94930,0.3927525545138522,0.4237543453070683,0.5219167384208735,2904,3.05909617612978,47035,47895,1.018284256404805,0.6072474454861478,3.4387962753097114,23,1.6615483662228203,25
Northern,Nanton,District,9.55848269999999,-0.710728600167338,12168,15048,39.9,45.3,27942,19692,12316,11235,12111,13374,830,901,50767,0.4496030886205606,0.3878897709141765,0.5529100529100529,1731,3.4096952744893336,25485,25282,0.9920345301157544,0.5503969113794394,2.9706290723302415,28,0.7885428037190404,64
Northern,Nanumba North Municipal,Municipal,8.92200959999999,-0.138644700894755,54525,46544,41.5,41.4,100046,82760,44193,43418,45870,49965,2216,3018,188680,0.4697583209667161,0.438626245495018,0.4605170724950281,5234,2.774008903964384,95835,92845,0.9688005425992592,0.5302416790332839,1.5898698889813807,47,2.4228143034480976,9
Northern,Nanumba South,District,8.76637935,0.0549741822848612,30173,24524,46.3,42.3,58488,46239,26547,25130,24635,26996,1329,1737,106374,0.4501663940436573,0.4346832872694455,0.4483609704371354,3066,2.8822832647075414,51631,54743,1.060273866475567,0.5498336059563427,2.2848616226190894,38,2.5563774420079155,7
Northern,Saboba,District,9.70870525,0.196098328672698,23478,30002,46.0,45.3,43917,20603,21316,20887,24741,26074,1115,1550,95683,0.5410156454124557,0.2153256064295643,0.5609947643979057,2665,2.7852387571459927,50815,44868,0.8829676276689954,0.4589843545875443,2.520149987351668,33,-0.35231499342772554,155
Northern,Sagnarigu Municipal,Municipal,9.48585935,-0.855049753344912,85957,123012,18.7,43.9,94006,62402,66933,65809,98837,100082,4429,5621,341711,0.7248961842024401,0.1826163044209873,0.5886614761041111,10050,2.9410817913382945,198919,142792,0.7178399247935089,0.27510381579755994,0.1405902783020254,89,-1.356897070979659,229
Northern,Savelugu Municipal,Municipal,9.6260647,-0.8258943,22576,46349,41.1,45.5,60689,44028,27601,26362,30825,33659,1964,2477,122888,0.5061438057418137,0.3582774558947985,0.672455567645992,4441,3.613859774754248,64484,58404,0.905713045096458,0.4938561942581863,3.1344999786696315,25,-0.4022101673435754,164
Northern,Tamale Metropolitan Area (TMA)-Tamale Central & Tamale South,Metropolitan,9.40078,-0.8393,105305,117605,21.0,44.0,123455,97886,73044,71370,106568,111108,2272,2962,367324,0.6639070684191613,0.266484084895079,0.5275896101565655,5234,1.4249000882055078,217676,149648,0.6874804755691946,0.33609293158083875,0.09294521706444021,94,-0.5048982757623417,175
Northern,Tatale Sanguli,District,9.34906725,0.514632473680653,20678,19204,52.4,43.5,40934,36464,17927,16996,17913,19322,1101,1546,74805,0.4527905888643807,0.487454047189359,0.4815204854320244,2647,3.5385335204865984,37235,37570,1.0089969115079898,0.5472094111356193,2.7787966526121557,31,2.3305848171328236,13
Northern,Tolon,District,9.555956,-1.19792230212529,21538,43727,57.5,46.8,66152,61432,27261,25564,29223,31525,2023,2494,118090,0.4398170886611906,0.5202133965619443,0.6699915728185092,4517,3.82504869167584,60748,57342,0.9439323105287416,0.5601829113388094,4.431878176625472,8,0.5285821982763129,75
Northern,Yendi Municipal,Municipal,9.4739214,0.022769270127783,35078,52937,38.3,45.3,71415,36683,33899,32507,39806,42284,2437,3488,154421,0.5375305172223985,0.2375518873728314,0.6014542975629155,5925,3.8369133731811087,82090,72331,0.8811182848093556,0.46246948277760147,2.430665448783131,34,-0.6166421496750677,185
Northern,Zabzugu,District,9.294058,0.367064,19567,23899,42.7,43.3,46203,32326,20403,18977,19446,21673,1030,1317,82846,0.4423025855201217,0.3901938536561813,0.5498320526388442,2347,2.8329671921396327,41119,41727,1.0147863518081666,0.5576974144798783,2.7081820101707264,32,1.3399413294482472,32
Oti,Biakoye,District,7.39217985,0.262973639210098,26316,18533,34.2,42.2,22512,28009,13938,13040,20259,20321,1872,2397,71827,0.6865802553357372,0.3899508541356314,0.4132310642377756,4269,5.943447450123212,40580,31247,0.7700098570724495,0.3134197446642628,-0.11102176169097748,112,1.5363496934048897,27
Oti,Guan,District,7.19092,0.60951,10218,9102,28.1,42.9,4992,7735,4642,4276,8596,7785,1215,1724,28238,0.8232169417097528,0.273921665840357,0.4711180124223602,2939,10.407960903746725,16381,11857,0.7238263842256273,0.1767830582902472,-0.5526605472766455,151,0.07167023488197273,119
Oti,Jasikan Municipal,Municipal,7.40707195,0.466071316332564,22068,17426,30.2,42.2,14510,21967,10365,9836,18458,17401,1618,2017,59695,0.7569310662534551,0.3679872686154619,0.4412315794804274,3635,6.089287209984086,35859,23836,0.6647145765358766,0.24306893374654492,-0.7192204262457323,164,0.8929138498433894,57
Oti,Kadjebi,District,7.7210325,0.534053201682814,27062,19482,27.2,41.5,21183,21373,14138,13277,21950,20709,1814,2071,73959,0.7135845536040238,0.2889844373233818,0.4185716741148161,3885,5.252910396300653,42659,31300,0.7337255913171898,0.28641544639597616,-0.7499194408473753,166,0.9518617491687285,52
Oti,Krachi East Municipal,Municipal,7.69817,0.22447,38222,26542,41.2,41.6,48059,50657,23489,22182,30990,30218,1707,1849,110435,0.5648209353918594,0.4587042151491828,0.4098264467914273,3556,3.2199936614298004,61208,49227,0.8042576133838714,0.4351790646081406,0.5365268831717666,68,2.363020897478366,11
Oti,Krachi Nchumuru,District,8.1892008,-0.0866133771431008,28802,17142,47.2,40.8,38203,47974,17598,16392,21445,21370,1324,1805,79934,0.5220682062701729,0.6001701403658017,0.3731063903882988,3129,3.9144794455425727,42815,37119,0.8669625131379189,0.4779317937298271,0.8041502367829001,62,3.7274474955511376,2
Oti,Krachi West Municipal,Municipal,7.8,-0.01667,20533,17593,37.4,41.7,25155,15465,11860,11142,18268,17444,1081,1333,61128,0.5884864546525324,0.2529937180997251,0.4614436342653307,2414,3.949090433189373,35712,25416,0.7116935483870968,0.41151354534746765,0.20526076662641352,85,0.7420045494575607,65
Oti,Nkwanta North (Kpassa),District,8.4892994,0.3094664,39799,29263,55.2,41.7,69270,92265,28933,28101,32315,33375,1374,1998,126096,0.450656642558051,0.7317044156832889,0.4237207147201066,3372,2.6741530262657025,65690,60406,0.919561577104582,0.5493433574419491,1.9958205013016763,43,4.16248174854497,1
Oti,Nkwanta South Municipal,Municipal,8.25811615,0.509975335946734,47109,32265,42.8,41.8,60865,71074,29048,27514,36847,37565,2248,2714,135936,0.5522525306026365,0.5228489877589454,0.4064933101519389,4962,3.650247175141243,74412,61524,0.8268021286889211,0.44774746939736354,0.763259287081473,63,2.7377476285399704,6
Savannah,Bole,District,8.69166865,-2.17855621492469,27779,44167,37.2,44.8,56513,22652,22281,21573,36043,32286,1579,2038,115800,0.5119775474956823,0.1956131260794473,0.613890973785895,3617,3.123488773747841,68329,47471,0.6947416177611263,0.48802245250431775,1.7859872961265308,44,-1.117193263950387,215
Savannah,Central Gonja,District,8.93715119999999,-1.10983922943129,24193,52626,61.8,46.6,81261,65926,33708,32235,36113,37012,1814,1880,142762,0.430793908743223,0.4617895518415265,0.6850648927999583,3694,2.5875232905114807,73125,69637,0.9523008547008548,0.569206091256777,4.657088499559454,4,0.2782810203073648,99
Savannah,East Gonja Municipal,Municipal,8.347473,-0.7895018232454,31564,37727,38.8,43.1,60387,34704,24863,23601,33657,32157,1679,1798,117755,0.4871810114220203,0.2947136002717506,0.5444718650329768,3477,2.9527408602607106,65814,51941,0.7892089828911781,0.5128189885779797,1.5647596537482074,48,0.4152208252254628,86
Savannah,North East Gonja,District,8.98787705,-0.403868101269744,8662,12137,60.4,45.6,23615,23207,9616,8989,9775,9966,526,532,39404,0.4006953608770683,0.5889503603695057,0.5835376700802923,1058,2.685006598314892,19741,19663,0.996048832379312,0.5993046391229317,4.190842663659907,10,1.8786700085509849,21
Savannah,North Gonja,District,8.98787705,-0.403868101269744,12152,21266,58.4,47.2,36888,36681,14200,13825,15763,15868,801,986,61443,0.3996386895171134,0.5969923343586739,0.6363636363636364,1787,2.9083866347671825,31631,29812,0.9424931238342132,0.6003613104828867,4.552260436735496,6,1.1057592216759977,44
Savannah,Sawla Tuna Kalba,District,9.4809443,-2.41330933679435,22712,43064,54.2,46.9,66172,48272,23714,23174,26941,33062,2349,3424,112664,0.4126606546900518,0.4284598452034368,0.654706883969837,5773,5.124085777178158,60003,52661,0.8776394513607653,0.5873393453099482,4.099492740030122,12,0.029342282538368788,125
Savannah,West Gonja,Municipal,9.5267018,-1.5071681,10305,28704,39.7,44.9,25501,5633,12525,11915,18794,18196,951,1068,63449,0.5980866522719035,0.0887799650112688,0.7358301930323772,2019,3.182083247962931,36990,26459,0.715301432819681,0.4019133477280965,2.219819282137765,40,-2.5065633859767535,257
Upper East,Bawku Municipal,Municipal,11.0607602,-0.2422876,31016,42804,23.6,44.8,49713,8649,23314,22324,32217,34839,2498,4266,119458,0.5838453682465804,0.0724020157712334,0.5798428610132755,6764,5.662241122402853,67056,52402,0.7814662371748986,0.4161546317534196,1.12798600860472,58,-1.636595921789468,239
Upper East,Bawku West,District,10.84277,-0.492947618512454,30266,55329,47.6,47.2,74798,18214,30246,28348,37320,39958,3215,5102,144189,0.4812503034212041,0.1263203156967591,0.6464045797067586,8317,5.768123781980595,77278,66911,0.8658479774321282,0.5187496965787959,3.5193545302312796,22,-1.6710550529613164,240
Upper East,Binduri,District,10.9694889,-0.3062234,13742,32587,53.8,47.8,40396,10934,15617,14733,19298,21406,2076,3549,76679,0.4731804014136856,0.1425944521968205,0.7033823307215783,5625,7.335776418576142,40704,35975,0.8838197720125787,0.5268195985863144,4.244740877777323,9,-1.957548243548037,248
Upper East,Bolgatanga East,District,10.7853963,-0.8487322,9790,15601,24.9,44.0,12504,2878,6860,6573,11258,11835,718,1580,38824,0.6779311765917989,0.0741294044920667,0.6144303099523453,2298,5.91901916340408,23093,15731,0.6812020958732083,0.3220688234082011,0.514532088762876,69,-1.9856249835046191,249
Upper East,Bolgatanga Municipal,Municipal,10.7853963,-0.8487322,41187,52286,20.2,44.8,40341,12511,24732,24304,40979,46310,2139,4045,142509,0.716923141696314,0.0877909465367099,0.5593700854792293,6184,4.339375057013943,87289,55220,0.6326112110346092,0.283076858303686,-0.021576686257859138,105,-1.944569951631708,247
Upper East,Bongo,District,10.9166838999999,-0.805767855895511,16592,56294,54.0,48.5,51970,19822,22357,21188,30052,35165,2685,4984,116431,0.5536412123918888,0.1702467555891472,0.7723568312158714,7669,6.586733773651347,65217,51214,0.7852860450496036,0.4463587876081112,4.148711347283545,11,-2.717638237789813,260
Upper East,Builsa North Municipal,Municipal,10.73472,-1.29056,12841,24155,39.7,46.8,22586,6489,10206,9369,16697,16143,1429,2727,56571,0.6007495006275301,0.1147054144349578,0.6529084225321656,4156,7.346520301921479,32840,23731,0.7226248477466505,0.3992504993724699,2.2896616272966916,37,-2.235721086335428,254
Upper East,Builsa South,District,10.53032385,-1.26246582508358,6949,15982,55.1,47.7,18682,8007,7090,6554,10496,10263,742,1430,36575,0.4892139439507861,0.2189200273410799,0.6969604465570625,2172,5.938482570061518,20759,15816,0.7618864107134256,0.5107860560492139,3.808350338166218,15,-1.7510413491497558,243
Upper East,Garu,District,10.76975475,-0.21182067584702,15489,27113,44.7,47.7,36894,14309,14969,14203,17246,19558,2219,3579,71774,0.4859698498063365,0.1993618859196923,0.6364255199286418,5798,8.078134143283084,36804,34970,0.9501684599500054,0.5140301501936635,3.764835491911277,17,-1.249769805599239,224
Upper East,Kasena Nankana Municipal,Municipal,10.895598,-1.30768,23082,44019,33.8,47.1,32647,12449,16622,16172,29966,31126,2070,3939,99895,0.673186846188498,0.1246208518944892,0.6560110877632226,6009,6.01531608188598,61092,38803,0.6351568126759641,0.326813153811502,1.624869335168024,45,-2.622876340763701,259
Upper East,Kasena Nankana West,District,10.895598,-1.30768,15015,42880,53.6,47.4,37336,12340,16879,15961,24454,26493,2576,4372,90735,0.588516008155618,0.1360004408442166,0.7406511788582779,6948,7.657464043643578,50947,39788,0.7809684574165309,0.411483991844382,3.5969042073402497,21,-2.5073736399663975,258
Upper East,Nabdam,District,10.8469045,-0.661562047243897,5352,29181,68.6,51.2,24677,10522,9547,8959,15580,16128,1008,1817,53039,0.5347385885857576,0.1983823224419766,0.8450178090522109,2825,5.326269348969626,31708,21331,0.6727324334552794,0.4652614114142424,5.345939704685836,1,-3.6011162741392213,261
Upper East,Pusiga,District,11.0854045,-0.1276855,15814,30610,40.8,45.4,44153,6809,17464,16645,19362,22108,1943,3011,80533,0.4517402803819552,0.0845491910148634,0.6593572290194727,4954,6.151515527796059,41470,39063,0.941958041958042,0.5482597196180448,3.251384586189305,24,-1.4892973006719603,233
Upper East,Talensi,District,10.6451057499999,-0.62587443176215,15187,39504,56.2,48.9,35409,16401,16765,15565,25355,24262,1729,3345,87021,0.5930982176715964,0.1884717481987106,0.7223126291345925,5074,5.830776479240643,49617,37404,0.7538545256666062,0.40690178232840357,3.8616705173875094,14,-2.4715455296189015,255
Upper East,Tempane,District,10.9030714,-0.0914351270233069,16027,35236,50.7,48.1,47667,15911,18264,17466,20421,24065,2583,4194,86993,0.4520593610980193,0.1828997735449978,0.6873573532567349,6777,7.79028197671077,44486,42507,0.9555140943218092,0.5479406389019807,4.4418916044998475,7,-1.602313766532942,238
Upper West,Daffiama Bussie Issa,District,10.36748405,-2.26222672458466,10070,13695,38.7,44.4,21566,10188,7768,7221,10310,10968,845,1642,38754,0.4435155080765857,0.2628889921040409,0.5762676204502419,2487,6.417402074624555,21278,17476,0.8213177930256603,0.5564844919234143,2.2435270282920667,39,-0.10394447373582336,135
Upper West,Jirapa Municipal,Municipal,10.5366328,-2.7008646,15207,42406,50.1,47.4,44829,11356,17123,16543,23894,27936,2004,3779,91279,0.5088793698441043,0.1244097766189375,0.736049155572527,5783,6.335520766003134,51830,39449,0.7611229017943276,0.4911206301558957,3.6362044979252777,18,-2.50478588514008,256
Upper West,Lambussie Karni,District,10.846747,-2.708741,10758,19875,44.2,46.0,25646,5836,10644,9841,13368,14326,1048,1891,51118,0.4982980554794788,0.1141672209397863,0.6488101067476251,2939,5.749442466450174,27694,23424,0.8458149779735683,0.5017019445205212,3.003912137400092,27,-1.6001428208844442,237
Upper West,Lawra Municipal,Municipal,10.61348995,-2.86412434170417,12718,24866,39.5,45.8,26943,3535,10757,10092,16108,17366,1460,2650,58433,0.5389078089435764,0.0604966371741995,0.6616113239676458,4110,7.033696712474116,33474,24959,0.7456234689609846,0.46109219105642363,2.358032855135086,36,-2.213784024294804,253
Upper West,Nadowli Kaleo,District,10.2868347,-2.6394776056347,16572,32214,40.6,47.2,34105,9882,14459,13812,20639,22624,1895,3628,77057,0.5574055569253928,0.1282427294081005,0.6603123847005289,5523,7.1674215191351855,43263,33794,0.7811293715183876,0.44259444307460716,2.7896121217643692,30,-2.119714569492695,252
Upper West,Nandom,Municipal,10.8520701,-2.760077,11997,21466,31.8,44.8,22506,2685,9167,8698,15098,14682,1312,2371,51328,0.5615258728179551,0.0523106296758104,0.6414846248094911,3683,7.175420822942644,29780,21548,0.7235728676964406,0.4384741271820449,1.5977653812268595,46,-2.0928987597931563,251
Upper West,Sissala East Municipal,Municipal,10.59705475,-1.85050542952138,23696,25675,28.8,44.3,36973,13326,15883,15365,22675,23421,1310,1965,80619,0.5413860256267133,0.1652960220295463,0.5200421299953414,3275,4.062317815899478,46096,34523,0.7489370010413051,0.45861397437328666,0.9940015437924496,60,-0.6099565485559573,182
Upper West,Sissala West,District,10.7467085,-2.29346951572635,15085,22345,32.3,46.1,31815,7964,13593,12805,16844,17554,1119,1913,63828,0.5015510434292161,0.1247728269724885,0.5969810312583489,3032,4.750266340790875,34398,29430,0.8555729984301413,0.4984489565707839,2.3631446630299493,35,-1.3894702768442075,230
Upper West,Wa East,District,10.06069,-2.50192,24065,29821,48.7,45.3,53226,28685,19492,18079,25357,24624,1772,2133,91457,0.4180215839137517,0.313644663612408,0.5534090487325094,3905,4.269766119597188,49981,41476,0.8298353374282227,0.5819784160862482,2.8462409061213165,29,0.29685149748611767,98
Upper West,Wa Municipal,Municipal,10.0623261,-2.5054273,55802,74417,16.5,43.4,54484,21847,35425,35028,60148,62830,2920,4321,200672,0.728492265986286,0.1088691994897145,0.5714757447069936,7241,3.608375857120077,122978,77694,0.6317715363723593,0.271507734013714,-0.4563371184874608,138,-1.6930503442792777,241
Upper West,Wa West,District,9.8985772,-2.6832633,18605,38398,61.9,48.7,54974,29934,20291,19663,23133,27784,2456,3630,96957,0.4330063842734408,0.3087347999628701,0.6736136694559935,6086,6.277009395917778,50917,46040,0.9042166663393366,0.5669936157265592,4.868425326477099,3,-0.9327994123022032,206
Volta,Adaklu,District,6.4470511,0.6286474,12326,12465,33.2,43.6,11060,10446,7153,6705,10721,11393,1089,1588,38649,0.7138347693342648,0.2702786618023752,0.5028034367310718,2677,6.926440528862325,22114,16535,0.7477163787645835,0.2861652306657352,0.38305412280374945,77,-0.02585391987581379,130
Volta,Afadzato South,District,7.0222497,0.561946,21981,25555,32.5,43.7,14099,21171,13038,12572,20683,21229,2360,3264,73146,0.8072485166652995,0.2894348289721926,0.537592561427129,5624,7.688732124791513,41912,31234,0.7452280969650696,0.1927514833347005,0.23156847863717545,84,-0.331243035992993,152
Volta,Agortime-Ziope,District,6.42618935,0.732357165932429,15226,10905,25.7,43.4,11971,10152,6706,6716,11021,12218,1064,1828,39553,0.6973428058554345,0.2566682678937122,0.4173204240174505,2892,7.311708340707405,23239,16314,0.7020095529067516,0.3026571941445655,-0.44323378698744825,137,0.3400794392236727,91
Volta,Akatsi North,District,6.3108306,0.876439062223793,10667,10630,39.3,44.4,11624,16744,5827,5631,8505,10014,913,1865,32755,0.6451228820027477,0.511189131430316,0.4991313330516035,2778,8.481147916348649,18519,14236,0.7687240131756574,0.3548771179972523,1.149740634171895,55,1.2288160930585859,39
Volta,Akatsi South Municipal,District,8.25846,0.508747,28601,32012,30.1,44.5,26836,28973,15952,15568,24603,29179,2342,4489,92133,0.7087254295420751,0.3144692998165695,0.5281375282530151,6831,7.414281527791345,53782,38351,0.7130824439403518,0.29127457045792493,0.5042531119967606,70,-0.26861464547486597,147
Volta,Anloga,District,5.7936484,0.8984702,27359,36184,31.6,45.9,29252,41680,15986,15366,26025,29534,2698,5286,94895,0.691743505980294,0.4392222983297328,0.5694411658247172,7984,8.413509668581064,55559,39336,0.7080041037455678,0.308256494019706,1.14899517874723,56,-0.19154932206795194,141
Volta,Central Tongu,District,6.16884364999999,0.611561745917151,24532,28243,36.0,44.4,29161,26329,15476,15033,21648,25244,2067,3816,83284,0.6498607175447866,0.3161351520099899,0.5351586925627665,5883,7.06378175880121,46892,36392,0.7760812078819415,0.3501392824552134,1.1393229384575456,57,0.0014888356808374509,127
Volta,Ho Municipal,Municipal,6.6126598,0.4688932,61676,68181,12.5,42.1,19028,24246,25031,25254,55464,63965,4215,6213,180142,0.8943722174728825,0.1345938204305492,0.5250467822296834,10428,5.788766639650942,119429,60713,0.5083606159308041,0.10562778252711746,-2.0641245178050034,231,-1.5130794060733754,235
Volta,Ho West,District,6.590707,0.46714,28395,28088,27.9,42.7,15702,25710,13846,12843,23357,25820,2929,4377,83172,0.8112105035348435,0.3091184533256384,0.4972823681461679,7306,8.784206223248209,49177,33995,0.6912784431746548,0.18878949646515653,-0.5412986290820989,150,0.0701960543398236,120
Volta,Hohoe Municipal,Municipal,7.153187,0.477735,37248,39037,18.8,42.8,18377,22140,19113,19074,33152,36705,2628,3800,114472,0.8394629254315465,0.1934097421203438,0.5117257652225208,6428,5.615346984415403,69857,44615,0.6386618377542694,0.16053707456845345,-1.0984537543952122,191,-0.878564910831898,205
Volta,Keta Municipal,Municipal,5.9215688,0.9910728,23209,31662,25.2,45.0,19817,21523,12367,11624,22241,25780,2378,4472,78862,0.7487129415941771,0.2729197839263523,0.5770261157988738,6850,8.68605919200629,48021,30841,0.6422398533974719,0.2512870584058229,0.28050112952726297,81,-1.1559692461287852,218
Volta,Ketu North Municipal,Municipal,6.192057,0.981151401381816,38123,37133,27.2,44.3,36305,43719,20368,19369,30658,35821,2972,5805,114993,0.6842851303992417,0.3801883592914351,0.493422451366004,8777,7.632638508430948,66479,48514,0.7297642864664029,0.31571486960075834,0.3452640256605313,79,0.3457699941749051,90
Volta,Ketu South Municipal,Municipal,6.07748514999999,1.0706219725046,74834,84471,25.6,45.4,76082,121139,47547,46270,68949,77440,4781,8135,253122,0.699425573438895,0.4785794992138178,0.5302470104516493,12916,5.102677760131478,146389,106733,0.729105328952312,0.300574426561105,0.6850633574580408,64,0.3043839498810679,97
Volta,Kpando Municipal,Municipal,7.0000115,0.318327973849328,18561,21639,23.4,43.4,10992,11556,9306,9046,18573,18164,1415,2048,58552,0.8122694357152617,0.1973630277360295,0.5382835820895523,3463,5.914400874436399,36737,21815,0.593815499360318,0.18773056428473833,-0.7239495021792601,165,-1.137572140970644,217
Volta,North Dayi,District,6.91384645,0.22267318926127,12527,14591,30.1,43.6,7589,8976,6244,5906,11277,11896,1554,2391,39268,0.806738311093002,0.228583070184374,0.538055903827716,3945,10.046348171539169,23173,16095,0.6945583221853019,0.19326168890699802,-0.06513647388999293,110,-0.7367811150653742,195
Volta,North Tongu,District,6.14399495,0.297188924896433,33245,36059,38.4,45.4,34242,45575,21452,20654,29254,33512,2535,4003,111410,0.6926487747957992,0.409074589354636,0.5203018584785871,6538,5.868413966430302,62766,48644,0.775005576267406,0.3073512252042008,1.2729381457205629,52,0.3083321309445468,95
Volta,South Dayi,District,6.5449087,0.240546020283373,16500,21760,29.0,44.3,12238,12038,9829,9429,17376,17233,1509,2142,57518,0.7872318230814701,0.2092910045550958,0.5687401986408782,3651,6.347578149448868,34609,22909,0.6619376462769799,0.2127681769185299,0.1445422034045421,88,-1.2280281297583684,222
Volta,South Tongu,District,5.96577275,0.641061228110148,33924,38903,32.4,45.2,32459,38843,20408,19879,29659,35644,2421,5103,113114,0.71304171013314,0.343396926994006,0.5341837505320829,7524,6.6516965185565,65303,47811,0.7321409429888367,0.28695828986686,0.8359673321949601,61,-0.2546534063486545,146
Western,Ahanta West Municipal,Municipal,4.8514282,-1.98665461803006,49812,47885,27.2,44.7,38266,70901,27867,27576,45127,47048,2225,3297,153140,0.7501240694789082,0.462981585477341,0.4901378752674084,5522,3.6058508554264073,92175,60965,0.661404936262544,0.2498759305210918,0.00392214889382722,102,0.4639768673702533,79
Western,Effia Kwesimintsim Municipal,Municipal,4.96766095,-1.80360599719917,63585,57847,9.3,42.5,15630,40568,26270,26273,56495,57599,3099,4239,173975,0.9101595056761028,0.2331829285816927,0.4763736082745899,7338,4.217847391866648,114094,59881,0.5248391677038232,0.08984049432389718,-2.2855701157942603,240,-0.838754675771744,201
Western,Ellembelle,District,5.14952214999999,-2.42142536190491,35570,42516,33.3,42.8,31771,36622,21811,20996,37019,36768,1756,2543,120893,0.7371973563399039,0.3029290364206364,0.5444766027200779,4299,3.55603715682463,73787,47106,0.6384051391166465,0.2628026436600961,-0.03017925137598016,106,-0.201159343558467,144
Western,Jomoro Municipal,Municipal,5.199616,-2.61473434715296,39912,40959,31.2,43.7,36331,40184,23402,22303,37306,38855,1941,2769,126576,0.7129708633548224,0.3174693464795854,0.5064732722483956,4710,3.721084565794464,76161,50415,0.6619529680545161,0.2870291366451776,0.08094894914621262,95,-0.026255880354322858,131
Western,Mpohor,District,4.9705877,-1.8927971,17795,16391,31.4,44.3,13671,25220,8995,8847,16862,15461,890,973,52028,0.7372376412700854,0.4847389866994695,0.4794652781840519,1863,3.580764203890213,32323,19705,0.6096278191999505,0.2627623587299146,-0.10073387089920531,111,0.7089695859994344,67
Western,Nzema East Municipal,Municipal,5.08576495,-2.22263416898707,32893,27539,38.2,43.0,32560,46450,17234,16955,30240,27556,1116,1520,94621,0.655890341467539,0.4909058242884772,0.4557022769393699,2636,2.785850921042897,57796,36825,0.637154820402796,0.344109658532461,0.11073388797530284,92,1.4385567893381865,29
Western,Prestea/Huni Valley Municipal,Municipal,5.44481979999999,-2.04050432321944,73612,73038,29.5,43.8,59020,112064,41865,40786,72937,67695,2942,3076,229301,0.742609059707546,0.488720066637302,0.4980429594272076,6018,2.6244979306675504,140632,88669,0.6305037260367484,0.257390940292454,-0.14655961971008258,113,0.7174048604358197,66
Western,"Sekondi Takoradi Metropolitan Area (STMA)- Takoradi, Sekondi & Essikado-Ketan",Metropolitan,4.95328,-1.73308,85174,86453,10.1,42.6,23679,49217,36872,36883,77931,82625,4541,6530,245382,0.903501479326112,0.2005729841634675,0.5037261037016321,11071,4.511740877488976,160556,84826,0.5283265651859788,0.09649852067388798,-2.082721647791606,233,-1.16998966866004,219
Western,Shama,District,5.0606463,-1.64288365568687,38185,36098,22.0,44.4,24535,35638,21733,21208,33497,35874,1980,2932,117224,0.7906998566846379,0.3040162424076981,0.485952371336645,4912,4.1902682044632495,69371,47853,0.6898127459601274,0.20930014331536206,-0.36929818167263856,128,-0.3016498071602691,150
Western,Tarkwa-Nsuaem Municipal,Municipal,5.310935,-1.992426,74018,73132,18.2,43.5,39035,62189,36129,35830,74620,67080,2538,2912,219109,0.8218466607943992,0.283826771150432,0.4969894665307509,5450,2.4873464805188283,141700,77409,0.546287932251235,0.17815333920560084,-1.2502281061175489,204,-0.6439263801543144,187
Western,Wassa Amenfi Central,District,5.7890318,-2.0839856,39525,34394,37.6,43.0,40255,55487,22543,21537,38197,32215,1827,1680,117999,0.6588530411274671,0.4702327985830388,0.4652930910861889,3507,2.972059085246485,70412,47587,0.6758365051411691,0.3411469588725329,0.244647667609137,83,1.3334269193598898,35
Western,Wassa Amenfi East Municipal,Municipal,5.87660585,-1.98975398510416,55415,62692,35.5,44.4,57887,82600,31302,30287,61347,51720,2634,2406,179696,0.6778614994212449,0.4596652123586501,0.5308068107732818,5040,2.804736888968035,113067,66629,0.5892877674299309,0.32213850057875515,0.4344586254360316,72,0.3383431341192555,92
Western,Wassa Amenfi West Municipal,Municipal,5.7735167,-2.5321498,48494,36169,24.9,42.0,39203,36463,23579,22758,43434,37508,1924,1797,131000,0.7007404580152672,0.2783435114503816,0.4272114146675643,3721,2.8404580152671755,80942,50058,0.6184428356106841,0.2992595419847328,-1.026485899437942,185,0.510219242307661,77
Western,Wassa East,District,5.3622378,-1.62070954561049,37479,24536,38.0,42.0,31560,53204,19411,18215,29878,28067,1911,2159,99641,0.6832629138607601,0.5339569052899911,0.3956462146254938,4070,4.084663943557371,57945,41696,0.7195789110363275,0.3167370861392399,-0.2053920451832667,116,2.3629168428902934,12
Western North,Aowin Municipal,Municipal,5.69311555,-2.7557437678514,48339,36622,37.1,41.9,51625,44974,24663,23633,43488,37969,1980,1524,133257,0.6125907081804334,0.3374982177296502,0.431044832334836,3504,2.6295053918368265,81457,51800,0.6359183372822471,0.3874092918195666,-0.20543601205282125,117,1.1309058001351069,43
Western North,Bia East,District,6.817878,-3.00681786775424,20133,12438,32.9,41.5,22623,23293,10619,9883,16617,14414,918,622,53073,0.5737380589000056,0.4388860625930322,0.3818734457032329,1540,2.901663746160948,31031,22042,0.7103219361283878,0.4262619410999944,-0.27558073955321777,121,2.1648815716965912,16
Western North,Bia West,District,6.56894165,-3.06628883975843,38243,33676,24.5,41.3,11991,8269,22464,21498,35895,33204,1596,1224,115881,0.8965231573769643,0.0713576859019166,0.4682490023498658,2820,2.433530949853729,69099,46782,0.6770286111231711,0.10347684262303569,-1.5255382098256618,218,-0.8005682091754805,197
Western North,Bibiani Anhwiaso Bekwai Municipal,Municipal,6.29602085,-2.23398871855776,54933,53406,25.8,41.9,22658,14946,30105,29527,50059,52106,2634,3540,167971,0.865107667394967,0.0889796452959141,0.4929526763215462,6174,3.675634484524114,102165,65806,0.6441149121519111,0.13489233260503297,-1.2260010651440514,199,-1.0000823994688943,211
Western North,Bodi,District,6.24012575,-2.87347603617418,23327,18638,18.6,41.7,38497,24824,12137,11646,20465,19320,1051,1129,65748,0.4144764859767598,0.3775628155989536,0.4441320147742166,2180,3.315690211109083,39785,25963,0.6525826316450923,0.5855235140232402,-0.166603098136038,114,1.3371275953737145,34
Western North,Juaboso,District,6.3415722,-2.8235416,29440,27877,18.9,42.3,39907,30473,16061,15436,28339,26307,1322,1349,88814,0.5506676875267413,0.3431103204449749,0.4863653017429384,2671,3.0074087418650213,54646,34168,0.6252607693152289,0.44933231247325867,-0.372653330154027,130,0.521184479455331,76
Western North,Sefwi Akontombra,District,6.0425529,-2.8760069,25005,16732,24.5,42.2,29528,18022,13046,11906,20785,18801,1192,959,66689,0.5572283285099492,0.2702394697776245,0.4008912954932074,2151,3.225419484472701,39586,27103,0.6846612438740969,0.4427716714900508,-0.4293058067206998,135,0.92463915799648,54
Western North,Sefwi Wiawso Municipal,Municipal,6.30540429999999,-2.51755838219394,51890,46609,33.3,42.4,42460,37320,26975,25746,46395,46745,2535,2824,151220,0.7192170347837588,0.2467927522814442,0.4731926212448857,5359,3.543843406956752,93140,58080,0.6235774103500107,0.28078296521624124,-0.459917430562289,139,0.07416632224802544,118
Western North,Suaman,District,6.10824159999999,-3.00869712063798,12182,13089,37.5,41.3,19265,22574,6746,6251,13440,11022,421,388,38268,0.4965767743284206,0.5898923382460541,0.5179454710933481,809,2.114037838402844,24462,13806,0.5643855776306107,0.5034232256715794,0.3019542934641093,80,1.9667624053027841,20
